[
    {
        "id": "24bb478e-eb31-5f8a-8c8d-07f513169ec1",
        "name": "Gainbridge Fieldhouse",
        "capacity": 20000,
        "address": "125 S. Pennsylvania Street",
        "city": "Indianapolis",
        "state": "IN",
        "zip": "46204",
        "country": "USA",
        "sr_id": "sr:venue:6924",
        "location": {
            "lat": "39.763975",
            "lng": "-86.15542"
        },
        "team_id": "IND",
        "season": 2023,
        "hash": "3449c9e5e332f1dbb81505cd739fbf3f"
    },
    {
        "id": "84776b5f-b41b-4356-a5ed-3a2c28ab2597",
        "name": "St. Elizabeths East Entertainment and Sports Arena",
        "capacity": 4200,
        "address": "1100 Oak Street SE",
        "city": "Washington",
        "state": "DC",
        "zip": "20032",
        "country": "USA",
        "sr_id": "sr:venue:35680",
        "location": {
            "lat": "38.846767",
            "lng": "-76.991422"
        },
        "team_id": "WAS",
        "season": 2023,
        "hash": "3449c9e5e332f1dbb81505cd739fbf3f"
    },
    {
        "id": "7aed802e-3562-5b73-af1b-3859529f9b95",
        "name": "Target Center",
        "capacity": 19356,
        "address": "600 First Avenue North",
        "city": "Minneapolis",
        "state": "MN",
        "zip": "55403",
        "country": "USA",
        "sr_id": "sr:venue:6930",
        "location": {
            "lat": "44.979444",
            "lng": "-93.276111"
        },
        "team_id": "MIN",
        "season": 2023,
        "hash": "3449c9e5e332f1dbb81505cd739fbf3f"
    },
    {
        "id": "792ec100-691e-5e16-8ef8-79b2b6ee38ba",
        "name": "Crypto.com Arena",
        "capacity": 18997,
        "address": "1111 S. Figueroa Street",
        "city": "Los Angeles",
        "state": "CA",
        "zip": "90015",
        "country": "USA",
        "sr_id": "sr:venue:6008",
        "location": {
            "lat": "34.043059",
            "lng": "-118.267223"
        },
        "team_id": "LAS",
        "season": 2023,
        "hash": "3449c9e5e332f1dbb81505cd739fbf3f"
    },
    {
        "id": "69391650-8df7-49f0-8128-217a57679085",
        "name": "College Park Center",
        "capacity": 7000,
        "address": "601 S Pecan Street",
        "city": "Arlington",
        "state": "TX",
        "zip": "76019",
        "country": "USA",
        "sr_id": "sr:venue:17770",
        "location": {
            "lat": "32.730586",
            "lng": "-97.107972"
        },
        "team_id": "DAL",
        "season": 2023,
        "hash": "3449c9e5e332f1dbb81505cd739fbf3f"
    },
    {
        "id": "1ed647ac-63f1-4dab-bca8-c192d96b33c6",
        "name": "Climate Pledge Arena",
        "capacity": 15354,
        "address": "334 1st Avenue North",
        "city": "Seattle",
        "state": "WA",
        "zip": "98109",
        "country": "USA",
        "sr_id": "sr:venue:7082",
        "location": {
            "lat": "47.622342",
            "lng": "-122.353788"
        },
        "team_id": "SEA",
        "season": 2023,
        "hash": "3449c9e5e332f1dbb81505cd739fbf3f"
    },
    {
        "id": "7bdc8cea-2fc4-4320-b461-5659f6d08091",
        "name": "Mohegan Sun Arena",
        "capacity": 9323,
        "address": "1 Mohegan Sun Boulevard",
        "city": "Uncasville",
        "state": "CT",
        "zip": "06382",
        "country": "USA",
        "sr_id": "sr:venue:20505",
        "location": {
            "lat": "41.491066",
            "lng": "-72.089518"
        },
        "team_id": "CON",
        "season": 2023,
        "hash": "3449c9e5e332f1dbb81505cd739fbf3f"
    },
    {
        "id": "7a330bcd-ac0f-50ca-bc29-2460e5c476b3",
        "name": "Barclays Center",
        "capacity": 17732,
        "address": "620 Atlantic Avenue",
        "city": "Brooklyn",
        "state": "NY",
        "zip": "11217",
        "country": "USA",
        "sr_id": "sr:venue:6918",
        "location": {
            "lat": "40.682957",
            "lng": "-73.975165"
        },
        "team_id": "NYL",
        "season": 2023,
        "hash": "3449c9e5e332f1dbb81505cd739fbf3f"
    },
    {
        "id": "1d2e59b2-2479-5f84-a6a7-e82f65dd8442",
        "name": "Footprint Center",
        "capacity": 18422,
        "address": "201 E. Jefferson Street",
        "city": "Phoenix",
        "state": "AZ",
        "zip": "85004",
        "country": "USA",
        "sr_id": "sr:venue:6938",
        "location": {
            "lat": "33.445833",
            "lng": "-112.071389"
        },
        "team_id": "PHO",
        "season": 2023,
        "hash": "3449c9e5e332f1dbb81505cd739fbf3f"
    },
    {
        "id": "fa4fcd34-792a-4cdc-a7df-a41e9d54a2b0",
        "name": "Wintrust Arena",
        "capacity": 10387,
        "address": "200 East Cermak Road",
        "city": "Chicago",
        "state": "IL",
        "zip": "60616",
        "country": "USA",
        "sr_id": "sr:venue:22190",
        "location": {
            "lat": "41.853611",
            "lng": "-87.621389"
        },
        "team_id": "CHI",
        "season": 2023,
        "hash": "3449c9e5e332f1dbb81505cd739fbf3f"
    },
    {
        "id": "06c2f947-3e69-43b8-bfec-d01c2370a21f",
        "name": "Michelob ULTRA Arena",
        "capacity": 12000,
        "address": "3950 Las Vegas Boulevard South",
        "city": "Paradise",
        "state": "NV",
        "zip": "89119",
        "country": "USA",
        "sr_id": "sr:venue:17989",
        "location": {
            "lat": "36.09061",
            "lng": "-115.178976"
        },
        "team_id": "LVA",
        "season": 2023,
        "hash": "3449c9e5e332f1dbb81505cd739fbf3f"
    },
    {
        "id": "bd2b9175-3436-4d8a-b3c1-2c8924f4590b",
        "name": "Gateway Center Arena",
        "capacity": 3500,
        "address": "2330 Convention Center Concourse",
        "city": "College Park",
        "state": "GA",
        "zip": "30337",
        "country": "USA",
        "sr_id": "sr:venue:47490",
        "location": {
            "lat": "33.646171",
            "lng": "-84.458691"
        },
        "team_id": "ATL",
        "season": 2023,
        "hash": "3449c9e5e332f1dbb81505cd739fbf3f"
    }
]